,City,Cloudiness,Country,Date,Humidity,Lat,Lng,Max Temp,Wind Speed
0,Tuktoyaktuk,90,CA,1580836288,75,69.45,-133.04,-18.39999999999995,5.7
1,Umm Lajj,0,SA,1580836289,64,25.02,37.27,62.708000000000006,2.25
2,Miraflores,40,MX,1580836289,42,19.22,-98.81,73.4,7.7
3,San Patricio,75,MX,1580836290,78,19.22,-104.7,77.0,1.39
4,Norman Wells,40,CA,1580836291,75,65.28,-126.83,-20.199999999999953,2.6
5,Hilo,90,US,1580836292,68,19.73,-155.09,66.2,3.6
6,Tautira,20,PF,1580836293,83,-17.73,-149.15,78.80000000000001,1.5
7,Sadove,90,UA,1580836293,93,46.25,30.18,44.6,8.0
8,Volksrust,63,ZA,1580836294,58,-27.37,29.88,66.41600000000001,2.67
9,Thompson,20,CA,1580836295,75,55.74,-97.86,-18.39999999999995,2.1
10,Avera,75,US,1580836295,68,33.19,-82.53,68.0,3.6
11,Sitka,90,US,1580836064,93,57.05,-135.33,37.4,3.6
12,Tiksi,98,RU,1580836296,91,71.69,128.87,-27.687999999999946,2.31
13,Bad Doberan,40,DE,1580836297,86,54.11,11.9,42.008,7.7
14,Hamilton,90,US,1580836215,87,39.18,-84.53,57.2,2.6
15,Cherskiy,100,RU,1580836298,99,68.75,161.3,-31.377999999999965,1.73
16,Punta Arenas,75,CL,1580836223,54,-53.15,-70.92,57.00200000000008,9.3
17,Saskylakh,0,RU,1580836299,93,71.92,114.08,-29.613999999999983,4.69
18,Pisco,12,PE,1580836191,30,-13.7,-76.22,78.00800000000001,6.7
19,Phuket,20,TH,1580836300,61,8.0,98.25,80.6,4.6
20,Qaanaaq,0,GL,1580836301,55,77.48,-69.36,-20.487999999999943,2.8
21,Dikson,100,RU,1580836105,92,73.51,80.55,13.658000000000005,8.95
22,Vardo,36,NO,1580836302,72,70.37,31.11,14.0,9.3
23,East London,10,ZA,1580836137,55,-33.02,27.91,86.0,4.1
24,Albany,90,US,1580836205,80,42.6,-73.97,48.00200000000008,0.7
25,Busselton,0,AU,1580836304,25,-33.65,115.33,78.00800000000001,8.36
26,Ushuaia,75,AR,1580836304,71,-54.8,-68.3,51.8,12.9
27,Hermanus,21,ZA,1580836305,88,-34.42,19.23,71.00600000000003,3.58
28,Rikitea,14,PF,1580836306,75,-23.12,-134.97,80.02400000000002,5.2
29,Januaria,89,BR,1580836306,81,-15.48,-44.37,81.05000000000001,2.18
30,Igarka,100,RU,1580836307,86,67.47,86.58,-5.9079999999999515,10.65
31,Carnarvon,10,AU,1580836263,94,-24.87,113.63,77.0,2.6
32,Saint George,1,US,1580836308,31,37.1,-113.58,35.99600000000005,4.1
33,Torzhok,98,RU,1580836309,81,57.04,34.96,22.658,5.67
34,Tura,14,IN,1580836025,55,25.52,90.22,57.236000000000075,0.39
35,New Norfolk,35,AU,1580836158,71,-42.78,147.06,51.8,3.1
36,Mar del Plata,75,AR,1580836310,69,-38.0,-57.56,91.99400000000009,7.7
37,George Town,20,MY,1580836311,74,5.41,100.34,82.4,1.0
38,Laas,20,IT,1580836311,52,46.62,10.7,42.8,5.7
39,Koplik,75,AL,1580836312,100,42.21,19.44,57.2,1.0
40,Kumul,0,CN,1580836312,70,42.8,93.45,12.074000000000012,0.6
41,Port Augusta,0,AU,1580836312,59,-32.5,137.77,66.2,4.6
42,Butaritari,100,KI,1580836313,78,3.07,172.79,82.85,5.43
43,Owensboro,90,US,1580836314,100,37.77,-87.11,60.00800000000001,2.1
44,Nantucket,90,US,1580836314,81,41.28,-70.1,48.2,5.1
45,Morant Bay,40,JM,1580836315,55,17.88,-76.41,87.80000000000001,3.1
46,Makakilo City,1,US,1580836315,88,21.35,-158.09,73.4,1.5
47,Janakkala,33,FI,1580836316,73,60.83,24.67,24.008000000000003,3.1
48,Provideniya,100,RU,1580836316,82,64.38,-173.3,-10.461999999999954,9.69
49,Bakel,26,SN,1580836317,4,14.9,-12.46,92.75,3.07
50,Esim,53,GH,1580836317,64,4.87,-2.24,83.24600000000005,3.63
51,Dalbandin,0,PK,1580836318,38,28.89,64.41,48.34400000000008,2.59
52,Mataura,57,NZ,1580836318,81,-46.19,168.86,46.99400000000007,1.34
53,Castro,58,BR,1580836319,80,-24.79,-50.01,74.15600000000003,3.04
54,Puerto Ayora,20,EC,1580836319,62,-0.74,-90.35,87.80000000000001,6.2
55,Sinop,100,TR,1580836320,79,41.77,34.87,46.65200000000008,9.08
56,Lavrentiya,100,RU,1580836320,79,65.58,-171.0,-10.515999999999956,5.87
57,Bluff,34,NZ,1580836321,81,-46.6,168.33,46.99400000000007,1.34
58,Ilulissat,5,GL,1580836321,54,69.22,-51.1,1.3999999999999986,1.5
59,Kapaa,1,US,1580836263,88,22.08,-159.32,68.0,3.1
60,Fengzhen,0,CN,1580836323,55,40.44,113.15,9.572000000000035,1.0
61,Saint-Philippe,20,RE,1580836323,74,-21.36,55.77,80.6,11.3
62,Luau,100,AO,1580836324,97,-10.71,22.22,67.35200000000009,2.12
63,Yellowknife,20,CA,1580836324,66,62.46,-114.35,-25.00599999999998,2.6
64,Atuona,51,PF,1580836325,73,-9.8,-139.03,80.02400000000002,7.27
65,Tasiilaq,90,GL,1580836325,79,65.61,-37.64,28.4,15.9
66,Torbay,20,CA,1580836326,68,47.67,-52.73,33.998000000000026,9.3
67,Mayya,99,RU,1580836326,73,61.73,130.28,-32.799999999999955,2.0
68,Henties Bay,16,NA,1580836327,93,-22.12,14.28,64.99400000000009,1.34
69,Biak,0,ID,1580836327,76,-0.91,122.88,81.46400000000003,2.52
70,Nanortalik,90,GL,1580836328,71,60.14,-45.24,32.95400000000005,12.48
71,Arraial do Cabo,75,BR,1580836329,79,-22.97,-42.03,84.2,4.6
72,Kropotkin,38,RU,1580836329,77,45.44,40.58,35.99600000000005,3.63
73,Kununurra,100,AU,1580836330,94,-15.77,128.73,78.80000000000001,3.06
74,Tommot,93,RU,1580836330,99,58.96,126.29,-33.15999999999998,0.77
75,Big Rapids,1,US,1580836331,66,43.7,-85.48,35.00600000000003,4.6
76,Vaini,20,TO,1580836331,100,-21.2,-175.2,71.6,1.0
77,Tres Passos,0,BR,1580836332,56,-27.46,-53.93,89.00600000000003,0.89
78,Oranjemund,54,NA,1580836332,86,-28.55,16.43,65.80400000000006,5.0
79,Pangnirtung,75,CA,1580836333,49,66.15,-65.71,-2.199999999999953,2.89
80,Hobart,1,AU,1580836333,71,-42.88,147.33,51.8,3.1
81,Itoman,75,JP,1580836334,93,26.12,127.67,64.4,5.7
82,Santa Rosa,75,PH,1580835752,78,14.31,121.11,77.0,1.0
83,Kahului,20,US,1580836335,77,20.89,-156.47,69.00800000000001,2.6
84,Marzuq,0,YE,1580836335,65,14.4,46.47,65.51600000000002,2.49
85,Aguimes,54,ES,1580836336,19,27.91,-15.45,78.80000000000001,5.1
86,Kruisfontein,51,ZA,1580836338,70,-34.0,24.73,77.32400000000001,1.3
87,Angol,75,CL,1580836276,52,-37.8,-72.72,68.0,2.6
88,Saint Anthony,1,US,1580836339,52,45.02,-93.22,17.99600000000005,2.1
89,Cape Town,75,ZA,1580835621,88,-33.93,18.42,73.00400000000005,5.1
90,Eyl,35,SO,1580836340,74,7.98,49.82,77.28800000000004,10.66
91,Upernavik,0,GL,1580836341,78,72.79,-56.15,-17.823999999999963,3.61
92,Ascension,90,US,1580836342,78,30.22,-90.9,73.99400000000009,4.6
93,Ponta do Sol,20,PT,1580836342,68,32.67,-17.1,73.00400000000005,2.1
94,Fortuna,1,US,1580836343,47,40.6,-124.16,37.004000000000055,2.6
95,Lebu,22,CL,1580836343,42,-37.62,-73.65,66.86600000000001,3.93
96,Guerrero Negro,98,MX,1580836344,34,27.98,-114.06,59.0,3.02
97,Kavieng,100,PG,1580836345,78,-2.57,150.8,83.93000000000004,3.92
98,Hvide Sande,7,DK,1580836346,80,56.0,8.13,41.0,7.7
99,Chalmette,90,US,1580836175,83,29.94,-89.96,73.99400000000009,6.7
100,Hailar,17,CN,1580836348,93,49.2,119.7,-27.759999999999984,2.98
101,Lagoa,16,PT,1580836348,89,39.05,-27.98,62.6,10.8
102,Port Hedland,100,AU,1580836349,54,-20.32,118.57,82.4,4.1
103,Port Alfred,31,ZA,1580836349,85,-33.59,26.89,75.99199999999999,5.78
104,Shingu,83,JP,1580836350,59,33.73,135.98,46.88600000000007,4.99
105,Tavda,100,RU,1580836351,94,58.04,65.27,34.23200000000001,3.76
106,Nome,90,US,1580836324,78,64.5,-165.41,12.2,7.7
107,Kodiak,90,US,1580836353,86,57.79,-152.41,33.8,2.1
108,Bengkulu,100,ID,1580836353,89,-3.8,102.27,73.72400000000002,1.51
109,Saldanha,73,ZA,1580836354,73,-33.01,17.94,75.2,6.7
110,Stolin,100,BY,1580836355,86,51.89,26.85,33.11600000000001,4.47
111,Sovetskiy,94,RU,1580836355,91,61.36,63.58,27.914000000000033,4.58
112,Barra de Tecoanapa,2,MX,1580836356,35,16.52,-98.75,93.48800000000006,3.31
113,Sokolo,0,ML,1580836357,6,14.73,-6.12,84.59600000000006,3.17
114,Dunedin,52,NZ,1580836303,74,-45.87,170.5,49.1,10.2
115,Mnogovershinnyy,100,RU,1580836358,97,53.94,139.92,-8.211999999999954,2.85
116,Yerofey Pavlovich,0,RU,1580836359,88,53.97,121.97,-25.00599999999998,1.49
117,Ribeira Grande,40,PT,1580836359,88,38.52,-28.7,62.6,6.2
118,Vila Velha,20,BR,1580836360,66,-20.33,-40.29,87.80000000000001,7.2
119,Zdunska Wola,100,PL,1580836360,80,51.6,18.94,39.992,4.1
120,Beira,20,MZ,1580836361,79,-19.84,34.84,82.85,6.1
121,Bouca,0,CF,1580836361,21,6.51,18.27,81.01400000000004,1.37
122,Bahawalnagar,0,PK,1580836362,71,30.55,73.39,48.2,3.45
123,Narsaq,75,GL,1580836362,29,60.92,-46.05,39.2,5.1
124,Tilichiki,100,RU,1580836363,88,60.47,166.1,-14.547999999999973,4.06
125,Barsovo,75,RU,1580836364,92,61.17,73.17,19.4,6.0
126,Longyearbyen,20,SJ,1580836309,69,78.22,15.64,-7.599999999999952,1.0
127,Barrow,20,US,1580836365,73,71.29,-156.79,-29.199999999999953,2.6
128,Hambantota,2,LK,1580836365,81,6.12,81.12,79.62800000000007,8.94
129,Lavumisa,24,SZ,1580836366,84,-27.31,31.89,74.44400000000007,3.62
130,Samarai,81,PG,1580836366,88,-10.62,150.67,77.0,2.55
131,Ilebo,100,CD,1580836367,97,-4.32,20.58,70.53800000000004,1.5
132,Trairi,72,BR,1580836368,76,-3.28,-39.27,81.80600000000004,2.5
133,Strezhevoy,90,RU,1580836369,85,60.73,77.59,15.8,5.0
134,Padang,94,ID,1580836370,86,-0.95,100.35,68.558,2.19
135,Rome,90,US,1580836370,96,43.21,-75.46,39.00200000000008,2.6
136,Qaqortoq,75,GL,1580836371,29,60.72,-46.03,39.2,5.1
137,Ostrovnoy,71,RU,1580836371,73,68.05,39.51,14.99000000000002,4.16
138,Port Macquarie,90,AU,1580836372,82,-31.43,152.92,66.00200000000008,0.94
139,Avarua,75,CK,1580836372,94,-21.21,-159.78,80.6,4.6
140,Nikolskoye,100,RU,1580836373,53,59.7,30.79,24.8,6.0
141,Bandarbeyla,29,SO,1580836373,73,9.49,50.81,76.87400000000002,9.82
142,Fairbanks,90,US,1580836374,77,64.84,-147.72,6.008000000000003,0.79
143,Rabo de Peixe,75,PT,1580836374,82,37.8,-25.58,64.4,6.2
144,Kamaishi,96,JP,1580836375,92,39.27,141.88,30.416000000000007,1.48
145,Airai,100,TL,1580836375,72,-8.93,125.41,67.316,2.42
146,Boyolangu,100,ID,1580836376,90,-8.12,111.89,73.85,0.31
147,Maraba,75,BR,1580836280,74,-5.37,-49.12,86.0,1.34
148,Fukuecho,0,JP,1580836378,58,32.69,128.84,48.2,6.2
149,Aripuana,100,BR,1580836378,95,-9.17,-60.63,75.2,1.2
150,Chokurdakh,100,RU,1580836379,98,70.63,147.92,-15.915999999999961,2.68
151,Saint-Leu,20,RE,1580836379,78,-21.15,55.28,78.80000000000001,9.8
152,Esfarayen,36,IR,1580836380,19,37.08,57.51,48.2,7.2
153,Klaksvik,95,FO,1580836380,80,62.23,-6.59,41.0,4.6
154,Bosobolo,89,CD,1580836381,25,4.18,19.9,80.67200000000004,0.08
155,Jamestown,90,US,1580836308,86,42.1,-79.24,46.004000000000055,4.6
156,Tela,20,HN,1580836382,66,15.78,-87.45,87.00800000000001,3.1
157,Phalaborwa,2,ZA,1580836383,43,-23.94,31.14,87.80000000000001,1.5
158,Flinders,90,AU,1580836383,93,-34.58,150.86,66.99199999999999,3.88
159,Shellbrook,75,CA,1580836384,84,53.22,-106.4,-2.199999999999953,4.1
160,San Antonio,40,US,1580836258,83,29.42,-98.49,73.00400000000005,2.42
161,Sao Filipe,0,CV,1580836386,68,14.9,-24.5,72.33800000000005,10.96
162,Dirba,18,IN,1580836387,74,30.07,75.98,49.04600000000005,3.11
163,Seoul,1,KR,1580835772,44,37.57,126.98,24.8,2.1
164,Dingle,57,PH,1580836388,91,11.0,122.67,69.89000000000001,3.99
165,Port-Cartier,75,CA,1580836388,68,50.03,-66.87,30.002000000000077,3.1
166,Gweta,70,BW,1580836389,47,-20.18,25.23,79.55600000000004,1.96
167,Mayumba,93,GA,1580836390,78,-3.43,10.66,82.04000000000002,5.69
168,Husavik,90,IS,1580836390,86,66.04,-17.34,33.8,2.6
169,Laguna,1,US,1580836391,52,38.42,-121.42,48.00200000000008,6.2
170,Lompoc,1,US,1580836141,28,34.64,-120.46,48.00200000000008,2.1
171,Kaitangata,81,NZ,1580836392,79,-46.28,169.85,44.99600000000005,1.34
172,Methoni,75,GR,1580836393,76,36.82,21.7,60.00800000000001,5.2
173,Penzance,40,GB,1580836393,70,50.12,-5.54,48.2,7.7
174,Mahebourg,75,MU,1580836394,83,-20.41,57.7,78.80000000000001,6.7
175,Bredasdorp,0,ZA,1580836394,69,-34.53,20.04,78.80000000000001,2.6
176,Pemba,0,MZ,1580836395,78,-12.97,40.52,82.058,2.97
177,Ahipara,49,NZ,1580836395,99,-35.17,173.17,66.00200000000008,8.51
178,Port Moresby,20,PG,1580836396,94,-9.44,147.18,77.0,2.1
179,Verkh-Usugli,0,RU,1580836396,84,52.7,115.17,-19.245999999999945,0.46
180,Cabra,0,ES,1580836397,41,37.47,-4.44,77.0,1.72
181,Yurimaguas,20,PE,1580836398,70,-5.9,-76.08,86.0,2.1
182,Alofi,30,NU,1580836399,94,-19.06,-169.92,78.80000000000001,1.5
183,Pascagoula,75,US,1580836399,73,30.37,-88.56,75.00200000000008,7.2
184,Geraldton,90,AU,1580836400,88,-28.77,114.6,75.2,3.1
185,Sao Lourenco do Sul,40,BR,1580836400,58,-31.37,-51.98,87.80000000000001,11.3
186,Urucui,67,BR,1580836401,73,-7.23,-44.56,83.75,2.13
187,Aklavik,75,CA,1580836401,69,68.22,-135.01,-9.399999999999949,3.6
188,'Ewa Beach,1,US,1580836402,88,21.32,-158.01,73.4,1.5
189,Santiago,0,CL,1580836205,31,-33.46,-70.65,80.00600000000003,2.1
190,Bucerias,90,MX,1580836218,88,20.75,-105.33,75.99199999999999,1.12
191,Faanui,61,PF,1580836403,80,-16.48,-151.75,81.608,6.27
192,Upata,100,VE,1580836404,36,8.01,-62.4,90.21200000000006,2.62
193,Bambous Virieux,75,MU,1580836404,83,-20.34,57.76,78.80000000000001,6.7
194,Camacha,100,PT,1580836405,73,33.08,-16.33,69.80000000000001,5.7
195,Lima,75,PE,1580835867,73,-12.04,-77.03,77.0,2.6
196,Trinidad,75,BO,1580836406,83,-14.83,-64.9,84.2,3.1
197,Susanville,1,US,1580836407,42,40.42,-120.65,23.0,1.27
198,Grand Forks,1,US,1580836204,84,47.93,-97.03,6.008000000000003,2.09
199,San Andres,40,CO,1580836116,66,12.58,-81.7,86.0,7.2
200,Freeport,75,US,1580836300,71,40.66,-73.58,51.998000000000026,6.71
201,Khatanga,41,RU,1580836409,84,71.97,102.5,-20.271999999999935,5.02
202,Hirara,95,JP,1580836410,83,24.8,125.28,67.02800000000008,10.31
203,Chara,7,RU,1580836411,96,56.91,118.26,-33.213999999999984,0.43
204,Trondheim,75,NO,1580836412,80,63.43,10.4,39.2,9.8
205,Brigham City,1,US,1580836146,66,41.51,-112.02,21.991999999999997,1.92
206,Yeysk,1,RU,1580836413,80,46.7,38.28,35.90600000000003,4.29
207,Port Elizabeth,17,ZA,1580836414,61,-33.92,25.57,80.6,3.1
208,Dangriga,75,BZ,1580836414,83,16.97,-88.23,84.2,4.1
209,Port Hardy,90,CA,1580836207,99,50.7,-127.42,33.8,8.2
210,Yar-Sale,100,RU,1580836416,93,66.83,70.83,18.5,7.42
211,Zaysan,99,KZ,1580836417,84,47.47,84.87,16.916000000000007,0.53
212,Sabha,0,LY,1580836417,39,27.04,14.43,63.446000000000055,3.31
213,Moree,75,AU,1580836418,56,-29.47,149.85,71.6,7.2
214,Bilibino,95,RU,1580836418,100,68.05,166.44,-41.24199999999995,0.92
215,Artigas,0,UY,1580836419,23,-30.4,-56.47,99.33800000000005,5.74
216,Lata,0,PT,1580836419,72,40.16,-8.33,60.998000000000026,5.1
217,Sayyan,6,YE,1580836420,49,15.17,44.32,57.50600000000003,1.76
218,Alekseyevskoye,90,RU,1580836420,74,55.31,50.11,30.2,5.0
219,Shumskiy,100,RU,1580836421,96,54.83,99.13,14.666000000000007,2.06
220,Lanxi,9,CN,1580836421,90,29.22,119.48,44.00600000000003,1.13
221,Booue,12,GA,1580836422,83,-0.09,11.94,76.40600000000003,1.06
222,Hong Kong,40,HK,1580836253,77,22.29,114.16,64.4,3.1
223,Beidao,5,CN,1580836423,83,34.57,105.89,32.19800000000002,1.29
224,Hasaki,20,JP,1580836423,93,35.73,140.83,37.4,2.6
225,Tuatapere,0,NZ,1580836424,81,-46.13,167.68,46.99400000000007,1.34
226,Pihani,0,IN,1580836424,57,27.63,80.2,53.33000000000004,2.29
227,Muromtsevo,100,RU,1580836425,94,56.37,75.24,16.430000000000042,3.8
228,Sao Joao da Barra,20,BR,1580836425,55,-21.64,-41.05,89.6,3.1
229,Lerwick,40,GB,1580836426,65,60.15,-1.15,44.6,3.6
230,Hithadhoo,22,MV,1580836426,75,-0.6,73.08,82.70600000000003,4.18
231,Mandalgovi,0,MN,1580836428,90,45.76,106.27,-3.9999999999999503,3.49
232,Portland,90,US,1580836169,86,45.52,-122.68,33.998000000000026,1.28
233,Christchurch,100,NZ,1580836394,100,-43.53,172.63,51.00800000000001,5.1
234,Buraidah,40,SA,1580836430,42,26.33,43.98,66.2,3.6
235,Paamiut,100,GL,1580836431,65,61.99,-49.67,30.74000000000002,3.38
236,San Vicente,0,AR,1580836431,71,-26.62,-54.13,82.99400000000009,0.45
237,Helong,49,CN,1580836432,90,42.54,129.0,-15.39399999999997,1.82
238,Jinchang,12,CN,1580836432,29,38.5,102.17,21.97400000000001,1.14
239,Puerto del Rosario,79,ES,1580836433,56,28.5,-13.86,71.6,5.1
240,Vila Franca do Campo,75,PT,1580836434,82,37.72,-25.43,64.4,6.2
241,Dubna,100,RU,1580836434,82,56.73,37.17,23.75600000000003,5.83
242,Nalut,0,LY,1580836435,38,30.33,10.85,60.854000000000056,4.68
243,Camana,100,PE,1580836435,58,-16.62,-72.71,73.85,4.46
244,Agadez,0,NE,1580836436,20,19.75,10.25,68.48600000000008,4.39
245,Maniitsoq,59,GL,1580836437,59,65.42,-52.9,23.144000000000073,1.37
246,Grivita,90,RO,1580836437,81,44.73,27.28,51.998000000000026,5.1
247,Baiyin,0,CN,1580836438,61,36.56,104.21,21.002000000000077,3.0
248,Moussoro,17,TD,1580836438,10,13.64,16.49,75.39800000000002,5.48
249,Gijang,0,KR,1580836439,50,35.24,129.21,33.8,2.1
250,Nacogdoches,90,US,1580836439,83,31.6,-94.63,71.99600000000005,3.6
251,Monte Patria,0,CL,1580836440,19,-30.69,-70.95,82.22000000000006,5.88
252,Jacksonville,1,US,1580836237,52,30.33,-81.66,71.00600000000003,2.1
253,Havre-Saint-Pierre,1,CA,1580836441,62,50.23,-63.6,24.8,5.1
254,Hervey Bay,75,AU,1580836442,100,-25.3,152.85,73.99400000000009,3.6
255,Zhanaozen,100,KZ,1580836442,80,43.3,52.8,41.9,9.08
256,San Cristobal,56,VE,1580836443,45,7.77,-72.22,69.83600000000007,2.21
257,Kavaratti,82,IN,1580836443,78,10.57,72.64,80.22200000000004,5.69
258,Pilar,75,BR,1580836444,79,-9.6,-35.96,84.2,4.1
259,Sawakin,66,SD,1580836445,81,19.11,37.33,73.90400000000005,5.04
260,Touros,40,BR,1580836446,66,-5.2,-35.46,86.0,7.2
261,Sibolga,94,ID,1580836446,96,1.74,98.78,70.77200000000005,1.56
262,Gwadar,0,PK,1580836447,50,25.12,62.33,70.53800000000004,4.97
263,Tual,90,ID,1580836447,75,-5.67,132.75,82.85,2.55
264,Nouadhibou,0,MR,1580836448,26,20.93,-17.03,84.2,6.2
265,Ponta Delgada,75,PT,1580836448,82,37.73,-25.67,64.4,6.2
266,Hays,40,US,1580836449,68,30.05,-98.03,73.00400000000005,2.1
267,San Quintin,93,MX,1580836449,35,30.48,-115.95,56.33600000000007,2.62
268,Usinsk,100,RU,1580836450,96,65.99,57.53,24.008000000000003,6.04
269,Constitucion,0,CL,1580836450,56,-35.33,-72.42,66.48800000000006,6.94
270,Cayenne,75,GF,1580836421,70,4.93,-52.33,84.2,6.2
271,Sirte,0,LY,1580836451,75,31.21,16.59,60.944000000000074,3.16
272,Emba,97,KZ,1580836452,87,48.83,58.14,33.008,10.29
273,Salalah,20,OM,1580836226,57,17.02,54.09,75.2,1.5
274,Skibbereen,40,IE,1580836453,65,51.55,-9.27,46.4,4.1
275,Mae Sai,0,TH,1580836454,72,20.43,99.88,64.4,2.1
276,Rongcheng,0,CN,1580836454,83,30.63,117.85,41.648000000000025,0.54
277,Essenbach,75,DE,1580836455,82,48.62,12.22,37.4,5.7
278,Talcahuano,20,CL,1580836455,52,-36.72,-73.12,68.0,4.6
279,Lishui,73,CN,1580836456,94,28.46,119.91,41.48600000000007,1.24
280,Coquimbo,0,CL,1580836456,64,-29.95,-71.34,69.80000000000001,5.7
281,Bethel,75,US,1580836457,65,41.37,-73.41,48.00200000000008,2.9
282,Dwarka,18,IN,1580836457,73,22.24,68.97,71.85200000000009,6.84
283,Iqaluit,90,CA,1580836458,77,63.75,-68.51,5.0,0.68
284,Adrar,36,MR,1580836459,8,20.5,-10.07,77.59400000000008,3.68
285,Chisec,80,GT,1580836281,60,15.82,-90.28,83.26400000000004,2.04
286,Talara,100,PE,1580836460,100,-4.58,-81.27,62.6,5.7
287,Voloshka,100,RU,1580836460,93,61.33,40.09,15.890000000000018,3.66
288,Saint-Pierre,20,RE,1580836461,78,-21.34,55.48,78.80000000000001,9.8
289,Darhan,9,MN,1580836461,89,49.49,105.92,-15.015999999999956,0.99
290,Resistencia,20,AR,1580836462,52,-27.46,-58.98,96.00800000000001,6.7
291,Gizo,100,SB,1580836462,85,-8.1,156.84,78.11600000000001,2.65
292,La Rioja,40,ES,1580836330,62,42.25,-2.5,53.6,4.1
293,Louangphabang,7,LA,1580836463,76,19.89,102.13,60.54800000000003,0.17
294,Maceio,75,BR,1580836464,79,-9.67,-35.74,84.2,4.1
295,Cabo San Lucas,75,MX,1580836189,87,22.89,-109.91,69.99800000000002,4.6
296,Clyde River,75,CA,1580836465,82,70.47,-68.59,-20.199999999999953,8.7
297,Ghanzi,29,BW,1580836466,43,-21.57,21.78,78.566,3.0
298,Kokopo,100,PG,1580836466,78,-4.35,152.26,81.93200000000002,4.83
299,Sirmaur,18,IN,1580836467,63,24.85,81.38,57.12800000000007,0.83
300,Marfino,75,RU,1580836467,73,55.7,37.38,28.4,8.0
301,Esperance,2,AU,1580836468,77,-33.87,121.9,64.4,5.1
302,Zlocieniec,89,PL,1580836468,90,53.53,16.01,35.99600000000005,0.89
303,Mazara del Vallo,40,IT,1580836315,87,37.66,12.59,60.8,12.3
304,Meulaboh,50,ID,1580836469,73,4.14,96.13,82.65200000000007,1.68
305,Lorengau,40,PG,1580836470,78,-2.02,147.27,83.89400000000008,6.08
306,Santa Isabel do Rio Negro,66,BR,1580836470,39,-0.41,-65.02,95.28800000000004,1.73
307,Siverek,75,TR,1580836471,86,37.76,39.32,41.0,2.6
308,Novyy Urengoy,100,RU,1580836471,93,66.08,76.63,11.948000000000025,9.63
309,The Valley,20,AI,1580836241,65,18.22,-63.06,86.0,6.2
310,Flagstaff,1,US,1580836229,36,35.2,-111.65,39.00200000000008,6.7
311,Quelimane,49,MZ,1580836473,86,-17.88,36.89,79.68200000000002,2.18
312,Ixtapa,90,MX,1580836473,88,20.7,-105.2,75.99199999999999,1.97
313,Porto Velho,75,BR,1580836474,88,-8.76,-63.9,78.80000000000001,1.0
314,Luderitz,0,NA,1580836474,69,-26.65,15.16,73.4,8.2
315,Nauta,100,PE,1580836475,73,-4.51,-73.58,85.58600000000007,1.88
316,Mangrol,81,IN,1580836476,72,21.12,70.12,70.88000000000005,8.26
317,Mount Gambier,0,AU,1580836476,87,-37.83,140.77,48.2,3.1
318,Boueni,16,YT,1580836477,83,-12.9,45.08,82.4,1.5
319,Spornoye,98,RU,1580836477,87,50.84,37.29,32.0,3.0
320,Arroyo de la Encomienda,0,ES,1580836478,81,41.61,-4.8,55.99400000000007,3.1
321,Magistralnyy,100,RU,1580836479,88,56.17,107.45,-2.505999999999979,2.12
322,Puerto Escondido,5,MX,1580836480,84,15.85,-97.07,89.6,2.1
323,Nemuro,36,JP,1580836481,60,43.32,145.57,20.102000000000075,3.65
324,Monrovia,40,LR,1580836481,62,6.3,-10.8,89.6,6.2
325,Alice Springs,90,AU,1580836482,36,-23.7,133.88,78.80000000000001,3.1
326,Kaeo,27,NZ,1580836482,99,-35.1,173.78,68.0,4.95
327,Ketchikan,90,US,1580836483,100,55.34,-131.65,42.8,3.1
328,Pevek,100,RU,1580836483,99,69.7,170.31,-21.747999999999976,3.26
329,Walvis Bay,75,NA,1580836484,68,-22.96,14.51,71.6,4.6
330,Lodja,82,CD,1580836485,98,-3.48,23.43,71.43800000000005,0.78
331,Pangkalanbuun,65,ID,1580836485,97,-2.68,111.62,73.85,0.82
332,Huambo,40,AO,1580836486,61,-12.78,15.74,77.0,3.1
333,Rio Gallegos,40,AR,1580836377,44,-51.62,-69.22,59.0,10.3
334,San Rafael,5,AR,1580836487,34,-34.62,-68.33,82.34600000000006,7.82
335,Honiara,75,SB,1580836487,100,-9.43,159.95,78.80000000000001,2.56
336,Greeneville,75,US,1580836488,82,36.16,-82.83,59.0,2.6
337,Hun,0,LY,1580836489,32,29.13,15.95,66.02000000000007,2.98
338,Sola,100,VU,1580836489,77,-13.88,167.55,83.91200000000006,3.71
339,Plyussa,0,RU,1580836490,56,58.43,29.37,25.538000000000046,4.79
340,Ampanihy,0,MG,1580836491,50,-24.7,44.75,85.60400000000006,7.48
341,Talnakh,40,RU,1580836491,84,69.49,88.4,-0.39999999999994884,17.0
342,Upington,40,ZA,1580836492,27,-28.45,21.26,87.80000000000001,7.7
343,Maumere,100,ID,1580836492,85,-8.62,122.21,77.19800000000004,2.44
344,Maputo,20,MZ,1580836493,74,-25.97,32.59,82.4,7.2
345,Te Anau,52,NZ,1580836493,79,-45.42,167.72,41.108000000000004,2.56
346,Iquitos,75,PE,1580836254,100,-3.75,-73.25,42.8,1.5
347,Karratha,100,AU,1580836494,61,-20.74,116.85,86.52200000000005,4.85
348,Bilma,0,NE,1580836495,19,18.69,12.92,66.05600000000004,2.44
349,Moose Factory,90,CA,1580836495,71,51.26,-80.61,5.0,7.2
350,Zaoyang,0,CN,1580836496,69,32.13,112.75,45.266000000000005,2.56
351,Kenai,75,US,1580836496,92,60.55,-151.26,24.008000000000003,1.5
352,Cozumel,75,MX,1580836443,69,20.51,-86.95,82.4,7.2
353,Anadyr,100,RU,1580836498,76,64.75,177.48,-11.199999999999953,6.0
354,Valdivia,40,CL,1580836498,55,-39.81,-73.25,64.4,4.6
355,Carauari,96,BR,1580836499,51,-4.88,-66.9,91.43600000000006,0.83
356,Mareeba,40,AU,1580836499,94,-17.0,145.43,77.0,1.0
357,Ginda,99,IN,1580836500,88,30.69,78.49,36.82400000000001,1.95
358,Poum,96,NC,1580836500,77,-20.23,164.02,80.56400000000004,10.35
359,Peachland,90,CA,1580836501,85,49.77,-119.74,24.998000000000026,0.92
360,Codrington,42,AU,1580836502,69,-38.27,141.97,57.48800000000004,5.85
361,Olafsvik,100,IS,1580836503,96,64.89,-23.71,40.80200000000008,7.67
362,Paragominas,91,BR,1580836503,85,-2.97,-47.48,82.43600000000006,1.71
363,Riyadh,40,SA,1580836363,29,24.69,46.72,66.2,2.6
364,Mahon,40,ES,1580836505,76,39.89,4.27,55.400000000000006,9.3
365,Saint-Francois,20,FR,1580836505,70,46.42,3.91,42.8,6.2
366,Lodwar,35,KE,1580836506,53,3.12,35.6,83.82200000000003,4.11
367,Katsuura,20,JP,1580836507,40,35.13,140.3,51.8,11.3
368,Zanjan,34,IR,1580836507,85,36.67,48.48,25.916000000000007,9.63
369,Port Lincoln,0,AU,1580836508,80,-34.73,135.87,61.46600000000001,5.81
370,Rapar,0,IN,1580836508,57,23.57,70.63,66.59600000000006,1.36
371,Chui,79,UY,1580836509,55,-33.7,-53.46,84.29000000000002,7.12
372,Aswan,0,EG,1580836509,32,24.09,32.91,63.41000000000008,4.58
373,Chapais,90,CA,1580836510,85,49.78,-74.85,19.4,4.6
374,Numaligarh,0,IN,1580836510,80,26.63,93.75,58.820000000000064,0.76
375,Roebourne,100,AU,1580836511,37,-20.78,117.13,90.82400000000001,7.47
376,Artesia,1,US,1580836512,14,33.87,-118.08,55.400000000000006,8.7
377,Raudeberg,40,NO,1580836513,74,61.99,5.14,39.00200000000008,2.6
378,Warrington,40,GB,1580836243,87,53.39,-2.58,48.2,8.2
379,Koroni,75,GR,1580836514,76,36.8,21.95,60.00800000000001,0.99
380,Yulara,2,AU,1580836229,41,-25.24,130.99,77.0,2.6
381,Nanyamba,40,TZ,1580836515,78,-10.68,39.83,82.4,0.35
382,Smithers,75,CA,1580836358,92,54.78,-127.17,23.0,1.34
383,Pemangkat,100,ID,1580836516,91,1.17,108.97,76.13600000000008,3.75
384,Rapu-Rapu,83,PH,1580836517,85,13.19,124.13,74.03000000000004,3.11
385,Sao Paulo de Olivenca,52,BR,1580836517,68,-3.38,-68.87,88.57400000000001,0.97
386,Russell,40,US,1580836518,72,32.35,-85.2,71.00600000000003,4.6
387,Illapel,0,CL,1580836518,27,-31.63,-71.17,75.65,5.41
388,Yumen,78,CN,1580836519,41,40.28,97.2,23.19800000000002,3.58
389,Forrest City,100,US,1580836519,100,35.01,-90.79,62.6,6.2
390,Hobyo,59,SO,1580836520,69,5.35,48.53,76.424,8.41
391,Mecca,88,SA,1580836502,64,21.43,39.83,69.90800000000002,2.76
392,Vao,78,NC,1580836521,77,-22.67,167.48,77.52200000000005,7.32
393,Ligayan,10,PH,1580836521,79,4.65,119.47,80.15,7.59
394,Severo-Kuril'sk,40,RU,1580836522,83,50.68,156.12,5.180000000000039,8.14
395,Meridian,1,US,1580836331,92,43.61,-116.39,28.994000000000074,2.1
396,Mersing,76,MY,1580836523,80,2.43,103.84,80.09600000000006,6.45
397,Cap Malheureux,75,MU,1580836524,83,-19.98,57.61,78.80000000000001,6.7
398,Vestmannaeyjar,90,IS,1580836524,100,63.44,-20.27,42.8,9.3
399,Mount Isa,41,AU,1580836525,100,-20.73,139.5,75.2,2.6
400,Barabinsk,75,RU,1580836525,95,55.36,78.36,7.9160000000000075,4.17
401,Visnes,16,NO,1580836526,69,59.36,5.22,39.2,8.7
402,Cururupu,100,BR,1580836526,90,-1.83,-44.87,80.47400000000002,2.08
403,Sechura,89,PE,1580836527,87,-5.56,-80.82,72.95,4.89
404,Augusto Correa,100,BR,1580836527,91,-1.02,-46.63,80.33000000000004,3.74
405,Skjervoy,90,NO,1580836528,92,70.03,20.97,24.8,3.6
406,Zhob,0,PK,1580836528,57,31.34,69.45,39.41600000000001,0.9
407,Ancud,75,CL,1580836529,71,-41.87,-73.82,53.6,5.7
408,Ovalle,0,CL,1580836529,19,-30.6,-71.2,82.22000000000006,5.88
409,Katherine,100,AU,1580836530,74,-14.47,132.27,82.4,2.6
410,Setermoen,90,NO,1580836531,92,68.86,18.35,23.0,7.7
411,Sosnovo-Ozerskoye,74,RU,1580836531,83,52.52,111.54,-17.91399999999998,2.07
412,Berlevag,95,NO,1580836532,73,70.86,29.09,19.4,9.3
413,Ouricuri,98,BR,1580836533,51,-7.88,-40.08,89.42000000000007,0.55
414,Havelock,40,US,1580836534,40,34.88,-76.9,73.00400000000005,7.2
415,Inverell,62,AU,1580836535,74,-29.78,151.12,64.99400000000009,1.79
416,Lebane,75,RS,1580836535,58,42.92,21.74,59.0,9.8
417,Mogadishu,38,SO,1580836537,76,2.04,45.34,79.91600000000001,11.75
418,Hualmay,97,PE,1580836537,63,-11.1,-77.61,78.80000000000001,4.46
419,Sioux Lookout,40,CA,1580836538,70,50.1,-91.92,-0.39999999999994884,4.6
420,Blyznyuky,97,UA,1580836538,74,48.86,36.56,34.628000000000064,3.35
421,College,90,US,1580836540,77,64.86,-147.8,6.008000000000003,1.11
422,Umm Kaddadah,39,SD,1580836540,13,13.6,26.69,70.12400000000002,5.09
423,Natal,40,BR,1580836329,70,-5.79,-35.21,86.0,7.7
424,Polunochnoye,94,RU,1580836541,92,60.87,60.42,24.008000000000003,3.15
425,Karangampel,100,ID,1580836542,85,-6.46,108.45,78.458,4.16
426,Safaga,0,EG,1580836542,42,26.73,33.94,68.0,5.1
427,Amurskaya Oblast',100,RU,1580836543,89,54.0,128.0,-21.171999999999933,2.07
428,Lakes Entrance,0,AU,1580836543,84,-37.88,147.98,53.99600000000005,5.84
429,Vilhena,75,BR,1580836517,78,-12.74,-60.15,78.80000000000001,5.1
430,Petropavlovsk-Kamchatsky,23,RU,1580836545,52,53.05,158.65,-9.399999999999949,4.0
431,Anshun,87,CN,1580836545,90,26.25,105.93,43.16000000000008,1.65
432,Yangi Marg`ilon,0,UZ,1580836546,69,40.43,71.72,37.4,2.1
433,Saint Augustine,1,US,1580836264,60,29.89,-81.31,71.00600000000003,3.6
434,Black River,75,JM,1580836547,78,18.03,-77.85,84.99199999999999,7.2
435,Ca Mau,46,VN,1580836521,90,9.18,105.15,73.058,2.98
436,Suntar,100,RU,1580836548,94,62.14,117.63,-23.961999999999954,1.71
437,Emerald,90,AU,1580836549,94,-23.53,148.17,73.4,2.1
438,Staryy Nadym,100,RU,1580836549,92,65.61,72.68,18.08600000000007,8.5
439,Oxapampa,100,PE,1580836550,86,-10.58,-75.4,63.55400000000006,1.4
440,Mayo,40,US,1580836551,72,38.89,-76.51,64.99400000000009,2.1
441,Urdoma,100,RU,1580836551,96,61.75,48.54,12.59600000000005,1.69
442,Vuktyl,100,RU,1580836552,97,63.86,57.31,26.81600000000001,2.69
443,Toguchin,98,RU,1580836552,92,55.24,84.39,11.516000000000009,3.11
444,Abu Samrah,92,SY,1580836553,83,35.3,37.18,52.34000000000002,5.26
445,Yarmouth,90,US,1580836511,75,41.71,-70.23,48.00200000000008,3.6
446,Pajapan,75,MX,1580836554,74,18.25,-94.7,78.80000000000001,2.51
447,Muisne,83,EC,1580836554,79,0.6,-80.03,84.2,4.6
448,Faya,40,SA,1580836555,87,18.39,42.45,57.2,4.6
449,Dudinka,40,RU,1580836555,84,69.41,86.18,-0.39999999999994884,17.0
450,Manokwari,92,ID,1580836556,71,-0.87,134.08,74.71400000000003,1.52
451,Tharad,0,IN,1580836556,71,24.4,71.63,59.648000000000025,2.16
452,Ambulu,84,ID,1580836557,80,-8.35,113.61,79.75400000000005,3.42
453,Aitape,100,PG,1580836557,79,-3.14,142.35,82.4,5.29
454,Palora,90,EC,1580836558,88,-1.7,-77.93,71.6,2.6
455,Gushikawa,75,JP,1580836558,93,26.35,127.87,64.4,5.7
456,Coyhaique,75,CL,1580836559,47,-45.58,-72.07,59.0,2.6
457,Charters Towers,30,AU,1580836559,92,-20.1,146.27,73.04000000000002,3.05
458,Bealanana,95,MG,1580836560,93,-14.55,48.73,66.16400000000004,1.02
459,Moranbah,84,AU,1580836561,79,-22.0,148.05,75.81200000000007,4.66
460,Eatonton,40,US,1580836562,72,33.33,-83.39,68.0,2.6
461,Zhigansk,40,RU,1580836562,97,66.77,123.37,-38.48799999999994,2.7
462,Aleksandrovsk-Sakhalinskiy,100,RU,1580836563,94,50.9,142.16,0.3740000000000627,7.69
463,Vallenar,3,CL,1580836563,50,-28.57,-70.76,75.45200000000008,5.48
464,Praia da Vitoria,75,PT,1580836564,82,38.73,-27.07,64.4,6.92
465,Chiredzi,35,ZW,1580836564,56,-21.05,31.67,80.31200000000007,2.66
466,Tchibanga,93,GA,1580836565,93,-2.85,11.03,75.50600000000003,1.25
467,Kutum,11,SD,1580836565,17,14.2,24.67,63.57200000000004,3.93
468,Wallaceburg,90,CA,1580836530,74,42.59,-82.39,35.99600000000005,7.7
469,Chauk,0,MM,1580836566,33,20.88,94.82,65.04800000000003,0.37
470,Mangaratiba,75,BR,1580836567,74,-22.96,-44.04,87.80000000000001,4.6
471,Phulbani,50,IN,1580836567,94,20.47,84.23,64.58000000000004,1.58
472,Auki,100,SB,1580836568,79,-8.77,160.7,84.75800000000001,8.79
473,Mabaruma,100,GY,1580836568,53,8.2,-59.78,87.04400000000007,1.89
474,Maragogi,90,BR,1580836570,79,-9.01,-35.22,81.91400000000004,6.53
475,Cartagena del Chaira,33,CO,1580836571,43,1.33,-74.84,91.43600000000006,3.07
476,Ganzhou,33,CN,1580836572,84,28.82,115.43,45.788000000000046,1.12
477,Pervoavgustovskiy,75,RU,1580836572,86,52.23,35.06,25.466000000000008,2.5
478,Kudahuvadhoo,0,MV,1580836573,77,2.67,72.89,81.64400000000008,5.84
479,Sann,0,PK,1580836573,63,26.04,68.14,64.4,3.1
480,Lipin Bor,100,RU,1580836574,91,60.26,37.98,19.238000000000042,4.35
481,Tanout,33,NE,1580836574,12,14.97,8.89,71.11400000000003,4.46
482,Andenes,75,NO,1580836575,53,69.31,16.12,26.6,10.3
483,Dundee,20,GB,1580836575,70,56.5,-2.97,44.6,2.1
484,Zyryanka,100,RU,1580836576,98,65.75,150.85,-17.481999999999964,2.55
485,Saint George's,20,GD,1580836576,62,12.06,-61.75,84.2,7.7
486,Jacareacanga,75,BR,1580836577,79,-6.22,-57.75,84.2,2.1
487,Pokhara,1,NP,1580836577,85,28.23,83.98,49.17200000000004,1.23
488,Cidreira,0,BR,1580836578,81,-30.18,-50.21,76.1,10.5
489,Lensk,100,RU,1580836578,92,60.73,114.93,-20.90199999999998,0.95
490,Punta Alta,75,AR,1580836579,45,-38.88,-62.07,84.2,3.6
491,Bandundu,100,CD,1580836579,96,-3.32,17.37,70.84400000000008,1.61
492,Kungurtug,2,RU,1580836580,72,50.6,97.52,-2.6859999999999715,1.43
493,Arrondissement de Tarbes,40,FR,1580836580,76,43.25,0.17,50.0,4.6
494,Qasigiannguit,5,GL,1580836581,54,68.82,-51.19,1.3999999999999986,1.5
495,Allapalli,36,IN,1580836581,51,19.42,80.07,76.64000000000001,2.48
496,Mezhova,68,UA,1580836582,78,48.25,36.73,32.0,3.11
497,Edelira,0,PY,1580836582,29,-26.75,-55.27,98.22200000000004,2.21
498,Kelo,5,TD,1580836583,14,9.31,15.81,81.71600000000001,2.68
499,Gejiu,2,CN,1580836583,96,23.31,103.16,45.71600000000001,1.71
500,Mizdah,0,LY,1580836584,39,31.45,12.98,60.51200000000006,4.43
501,Ayan,59,RU,1580836584,70,56.45,138.17,-21.153999999999954,5.86
502,Jalingo,47,NG,1580836585,15,8.88,11.37,80.29400000000007,1.83
503,Gazojak,90,TM,1580836585,49,41.19,61.4,47.93000000000004,9.09
504,Imbituba,90,BR,1580836586,100,-28.24,-48.67,75.2,3.6
505,Pemagatsel,0,BT,1580836587,73,27.03,91.43,41.45,1.95
506,Sisimiut,17,GL,1580836587,62,66.94,-53.67,1.9940000000000744,3.29
507,Krapivinskiy,90,RU,1580836588,92,55.0,86.81,24.8,3.0
508,Novoagansk,100,RU,1580836588,94,61.94,76.66,14.036000000000069,6.96
509,Srednekolymsk,99,RU,1580836589,97,67.45,153.68,-21.711999999999954,2.02
510,Chifeng,0,CN,1580836589,50,42.27,118.96,-1.8399999999999679,3.54
511,Huaral,75,PE,1580836590,73,-11.49,-77.21,77.0,2.6
512,Redlands,1,US,1580836590,15,34.06,-117.18,55.004000000000055,2.1
513,Naze,90,JP,1580836591,87,28.37,129.48,59.0,4.1
514,Chapada dos Guimaraes,40,BR,1580836591,55,-15.46,-55.75,89.6,3.1
515,Chino Valley,1,US,1580836592,29,34.76,-112.45,39.992,4.6
516,Pitmoaga,20,BF,1580836593,7,12.24,-1.88,91.4,5.7
517,Yeniseysk,99,RU,1580836593,96,58.45,92.17,4.802000000000078,1.8
518,Cortes,40,ES,1580836594,50,41.94,-1.44,55.400000000000006,8.7
519,Korla,61,CN,1580836594,40,41.76,86.15,19.202000000000076,0.77
520,High Level,20,CA,1580836595,83,58.52,-117.14,-12.99999999999995,1.39
521,Vanimo,100,PG,1580836596,81,-2.67,141.3,82.11200000000005,6.83
522,Franklin,90,US,1580836596,93,39.97,-83.02,57.00200000000008,4.1
523,Turukhansk,99,RU,1580836597,84,65.82,87.98,-9.705999999999982,5.83
524,Yonibana,0,SL,1580836597,14,8.44,-12.24,96.06200000000005,1.69
525,Asosa,19,ET,1580836597,25,10.07,34.53,73.23800000000006,2.42
526,Inirida,20,CO,1580836598,40,3.87,-67.92,98.43800000000005,0.39
527,Arona,20,ES,1580836598,43,28.1,-16.68,77.0,5.1
528,Trojes,75,AL,1580836599,67,41.76,19.96,60.8,8.2
529,El Sauzal de Rodriguez,3,MX,1580836599,25,31.9,-116.68,55.004000000000055,4.47
